{
  "stores": [
    {
      "id": 1,
      "name": "グルテンフリーカフェ 栄",
      "category": "カフェ",
      "address": "愛知県名古屋市中区栄3-5-1",
      "lat": 35.1685,
      "lng": 136.9098,
      "hours": "10:00-18:00",
      "closed": "火曜日",
      "tel": "052-123-4567",
      "description": "完全グルテンフリーのカフェ。米粉のケーキが人気です。",
      "glutenFreeType": "完全GF",
      "takeout": true,
      "seats": 20,
      "nacoComment": "米粉のシフォンケーキがふわふわで最高！",
      "website": "https://example.com",
      "googleMapsUrl": "https://www.google.com/maps/place/35.1685,136.9098"
    },
    {
      "id": 2,
      "name": "和食処 さくら",
      "category": "和食",
      "address": "愛知県名古屋市千種区本山町2-10",
      "lat": 35.1756,
      "lng": 136.9645,
      "hours": "11:30-14:00, 17:30-21:00",
      "closed": "月曜日",
      "tel": "052-234-5678",
      "description": "醤油も小麦不使用のものを用意。事前連絡でGF対応可能。",
      "glutenFreeType": "部分GF",
      "takeout": false,
      "seats": 30,
      "nacoComment": "お寿司と天ぷらがグルテンフリーで楽しめます！",
      "website": "",
      "googleMapsUrl": "https://www.google.com/maps/place/35.1756,136.9645"
    },
    {
      "id": 3,
      "name": "米粉パン工房 ひまわり",
      "category": "パン屋",
      "address": "愛知県名古屋市名東区藤が丘142",
      "lat": 35.1803,
      "lng": 137.0125,
      "hours": "8:00-18:00",
      "closed": "日曜日・月曜日",
      "tel": "052-345-6789",
      "description": "100%米粉使用の専門パン屋さん。",
      "glutenFreeType": "完全GF",
      "takeout": true,
      "seats": 0,
      "nacoComment": "食パンがもちもちで美味しい！朝早く行くのがおすすめ。",
      "website": "",
      "googleMapsUrl": "https://www.google.com/maps/place/35.1803,137.0125"
    },
    {
      "id": 4,
      "name": "イタリアン・リストランテ ソーレ",
      "category": "洋食",
      "address": "愛知県名古屋市中区大須3-30-40",
      "lat": 35.1595,
      "lng": 136.9012,
      "hours": "11:00-15:00, 17:00-22:00",
      "closed": "なし",
      "tel": "052-456-7890",
      "description": "グルテンフリーパスタあり。ピザ生地もGF対応可能。",
      "glutenFreeType": "部分GF",
      "takeout": true,
      "seats": 40,
      "nacoComment": "GFパスタの種類が豊富！デートにもおすすめ。",
      "website": "https://example-italian.com",
      "googleMapsUrl": "https://www.google.com/maps/place/35.1595,136.9012"
    },
    {
      "id": 5,
      "name": "名古屋土産処 八丁味噌の郷",
      "category": "土産店",
      "address": "愛知県名古屋市中区金山1-1-1",
      "lat": 35.1427,
      "lng": 136.9005,
      "hours": "9:00-20:00",
      "closed": "なし",
      "tel": "052-567-8901",
      "description": "八丁味噌商品や米粉のお菓子など、GF土産が豊富。",
      "glutenFreeType": "部分GF",
      "takeout": true,
      "seats": 0,
      "nacoComment": "お土産選びに困ったらここ！GF表示もわかりやすい。",
      "website": "",
      "googleMapsUrl": "https://www.google.com/maps/place/35.1427,136.9005"
    },
    {
      "id": 6,
      "name": "米粉スイーツ専門店 Sugar Free",
      "category": "スイーツ",
      "address": "愛知県名古屋市中区錦3-15-13",
      "lat": 35.1706,
      "lng": 136.8968,
      "hours": "11:00-19:00",
      "closed": "水曜日",
      "tel": "052-678-9012",
      "description": "米粉100%使用のグルテンフリースイーツ専門店。マカロンやタルトが人気。",
      "glutenFreeType": "完全GF",
      "takeout": true,
      "seats": 10,
      "nacoComment": "季節のフルーツタルトが絶品！プレゼントにも最適です。",
      "website": "",
      "googleMapsUrl": "https://www.google.com/maps/place/35.1706,136.8968"
    },
    {
      "id": 7,
      "name": "和スイーツ処 みたらし",
      "category": "スイーツ",
      "address": "愛知県名古屋市熱田区神宮2-3-1",
      "lat": 35.1274,
      "lng": 136.9089,
      "hours": "9:00-17:00",
      "closed": "不定休",
      "tel": "052-789-0123",
      "description": "伝統的な和菓子をグルテンフリーで。みたらし団子、大福が人気。",
      "glutenFreeType": "完全GF",
      "takeout": true,
      "seats": 15,
      "nacoComment": "米粉100%のみたらし団子は必食！熱田神宮参拝の際にぜひ。",
      "website": "",
      "googleMapsUrl": "https://www.google.com/maps/place/35.1274,136.9089"
    },
    {
      "id": 8,
      "name": "みちのり亭",
      "category": "和食",
      "address": "名古屋市中村区椿町８−７−２F",
      "lat": 35.1694717,
      "lng": 136.8790828,
      "hours": "11:00-15:00(LO14:00)  18:00-22:00(LO21::00",
      "closed": "なし",
      "tel": "",
      "description": "グルテンフリーの定食屋",
      "glutenFreeType": "完全GF",
      "takeout": false,
      "seats": 28,
      "nacoComment": "私のお店です",
      "website": "https://gf-michinori.jp/pages/michinori-tei",
      "instagram": "https://www.instagram.com/gf_michinori_tei/",
      "googleMapsUrl": "https://www.google.com/maps/place/%E3%81%BF%E3%81%A1%E3%81%AE%E3%82%8A%E4%BA%AD/@35.1694717,136.8790828,17z/data=!3m1!4b1!4m6!3m5!1s0x600377f592c69f27:0xfcbe7e72e46a5f4c!8m2!3d35.1694717!4d136.8790828!16s%2Fg%2F11rgb_tzpv?entry=ttu&g_ep=EgoyMDI1MDcyMC4wIKXMDSoASAFQAw%3D%3D"
    }
  ]
}